{"pageProps":{"villages":[{"association":"Lucban SWISA Inc.","municipality":"Benito Soliven","barangay":"Lucban","lon":"121.977959","province":"Isabela","lat":"16.997724"},{"lat":"17.1543","barangay":"Sta. Victoria","association":"AMIAnan Farmers Entrepreneur Agriculture Cooperative","lon":"121.953","municipality":"Ilagan","province":"Isabela"},{"lat":"18.2543","province":"Cagayan","municipality":"Buguey","lon":"121.8534","association":"Calamegatan Farmers'and Fisher Folks' Association","barangay":"Calamegatan"},{"lat":"18.3299","lon":"121.4856","association":"Nararagan United Farmers Association","province":"Cagayan","municipality":"Ballesteros","barangay":"Nararagan"},{"province":"Quirino","association":"Giayan Multi-Purpose Cooperative","lat":"16.1417","barangay":"Giayan","lon":"121.3656","municipality":"Nagtipunan"},{"barangay":"Maluno Norte","lon":"121.9615","lat":"17.0196","municipality":"Benito Soliven","province":"Isabela","association":"Alay Kapwa sa Maluno Sur"},{"association":"Maluno Norte Farmers Association","lat":"17.0061","barangay":"Maluno Sur","lon":"121.9644","municipality":"Benito Soliven","province":"Isabela"},{"lat":"17.0329","municipality":"Benito Soliven","lon":"121.9302","association":"Yeban Norte Farmers Association","barangay":"Yeban Norte","province":"Isabela"},{"lon":"122.1258","municipality":"San Mariano","province":"Isabela","barangay":"San Jose","association":"San Jose Farmers Association","lat":"16.9279"},{"municipality":"Gamu","association":"Baro A Langa Ti  Mannalon Cooperative","barangay":"Mabini","lat":"17.098","lon":"121.7366","province":"Isabela"},{"barangay":"Rizal","association":"Santiago Amos Credit and Development Cooperative","lat":"16.7202","municipality":"Santiago City","province":"Isabela","lon":"121.5456"},{"municipality":"Sanchez-Mira","lat":"18.585","province":"Cagayan","barangay":"Masisit","lon":"121.224","association":"Masisit-Dacal Livelihood Cooperative"},{"municipality":"Cauayan City","lat":"16.9655","barangay":"Union","province":"Isabela","association":"Union BP2 and Farmers Association","lon":"121.815"},{"province":"Isabela","lon":"121.7594","association":"Minante 1 BP2 and Farmers Association","lat":"16.9163","municipality":"Cauayan City","barangay":"Minante 1"},{"association":"BP2 Matusalem Farmers Association","lat":"17.0628","province":"Isabela","barangay":"Matusalem","lon":"121.577","municipality":"Roxas"},{"lat":"17.1672","barangay":"Naguillian Norte","municipality":"Ilagan","lon":"121.8648","association":"City of Ilagan BP2 and Farmers Association","province":"Isabela"},{"lat":"17.2828","barangay":"Annafunan","municipality":"Tumauini","association":"Annafunan BP2 and Farmers Association","province":"Isabela","lon":"121.8022"},{"barangay":"Mozzozin Norte","lon":"121.7496","province":"Isabela","lat":"17.4584","municipality":"Santa Maria","association":"Mozzozzin Norte BP2 and Farmers Association"},{"lon":"121.7274","barangay":"Minanga","province":"Cagayan","lat":"17.7658","association":"Balik Probinsya Bagong Pagasa of Iguig Farmers Association","municipality":"Iguig"},{"barangay":"San Juan","province":"Isabela","lat":"17.4287","municipality":"Cabagan","association":"BP2 Cabagan Association","lon":"121.7181"},{"municipality":"Reina Mercedes","lat":"16.9828","barangay":"Labinab Pequeno","province":"Isabela","lon":"121.8207","association":"BP2 Reina Mercedes Association"},{"municipality":"Bayombong","province":"Nueva Vizcaya","barangay":"Magapuy","lon":"121.1424","association":"Magapuy Farmers' Multi-Purpose Cooperative","lat":"16.4447"}],"provincesMunicipalities":[{"disabled":false,"id":0,"municipalities":[{"id":0,"disabled":false,"label":"Basco"},{"id":1,"label":"Itbayat","disabled":false},{"id":2,"disabled":false,"label":"Ivana"},{"disabled":false,"label":"Mahatao","id":3},{"disabled":false,"id":4,"label":"Sabtang"},{"label":"Uyugan","id":5,"disabled":false}],"label":"Batanes"},{"label":"Cagayan","disabled":false,"id":1,"municipalities":[{"disabled":false,"label":"Abulug","id":0},{"disabled":false,"label":"Alcala","id":1},{"label":"Allacapan","disabled":false,"id":2},{"id":3,"label":"Amulung","disabled":false},{"label":"Aparri","disabled":false,"id":4},{"id":5,"disabled":false,"label":"Baggao"},{"label":"Ballesteros","id":6,"disabled":false},{"id":7,"disabled":false,"label":"Buguey"},{"id":8,"label":"Calayan","disabled":false},{"id":9,"label":"Camalaniugan","disabled":false},{"disabled":false,"id":10,"label":"Claveria"},{"label":"Enrile","disabled":false,"id":11},{"disabled":false,"id":12,"label":"Gattaran"},{"id":13,"label":"Gonzaga","disabled":false},{"disabled":false,"label":"Iguig","id":14},{"id":15,"label":"Lal-Lo","disabled":false},{"id":16,"disabled":false,"label":"Lasam"},{"id":17,"label":"Pamplona","disabled":false},{"label":"Peñablanca","id":18,"disabled":false},{"disabled":false,"id":19,"label":"Piat"},{"label":"Rizal","id":20,"disabled":false},{"disabled":false,"label":"Sanchez-Mira","id":21},{"id":22,"disabled":false,"label":"Santa Ana"},{"label":"Santa Praxedes","id":23,"disabled":false},{"id":24,"disabled":false,"label":"Santa Teresita"},{"id":25,"label":"Santo Niño","disabled":false},{"label":"Solana","id":26,"disabled":false},{"id":27,"disabled":false,"label":"Tuao"},{"label":"Tuguegarao City","disabled":false,"id":28}]},{"disabled":false,"label":"Isabela","municipalities":[{"id":0,"label":"Alicia","disabled":false},{"disabled":false,"id":1,"label":"Angadanan"},{"disabled":false,"id":2,"label":"Aurora"},{"disabled":false,"id":3,"label":"Benito Soliven"},{"label":"Burgos","id":4,"disabled":false},{"disabled":false,"id":5,"label":"Cabagan"},{"label":"Cabatuan","id":6,"disabled":false},{"label":"Cauayan City","id":7,"disabled":false},{"disabled":false,"label":"Cordon","id":8},{"disabled":false,"label":"Delfin Albano","id":9},{"disabled":false,"id":10,"label":"Dinapigue"},{"label":"Divilacan","id":11,"disabled":false},{"label":"Echague","id":12,"disabled":false},{"disabled":false,"label":"Gamu","id":13},{"label":"Ilagan","disabled":false,"id":14},{"disabled":false,"label":"Jones","id":15},{"disabled":false,"id":16,"label":"Luna"},{"disabled":false,"id":17,"label":"Maconacon"},{"disabled":false,"id":18,"label":"Mallig"},{"disabled":false,"id":19,"label":"Naguilian"},{"disabled":false,"label":"Palanan","id":20},{"id":21,"disabled":false,"label":"Quezon"},{"disabled":false,"id":22,"label":"Quirino"},{"id":23,"disabled":false,"label":"Ramon"},{"disabled":false,"id":24,"label":"Reina Mercedes"},{"disabled":false,"id":25,"label":"Roxas"},{"id":26,"label":"San Agustin","disabled":false},{"label":"San Guillermo","id":27,"disabled":false},{"id":28,"disabled":false,"label":"San Isidro"},{"id":29,"label":"San Manuel","disabled":false},{"disabled":false,"id":30,"label":"San Mariano"},{"label":"San Mateo","id":31,"disabled":false},{"disabled":false,"id":32,"label":"San Pablo"},{"label":"Santa Maria","disabled":false,"id":33},{"label":"Santiago City","id":34,"disabled":false},{"label":"Santo Tomas","disabled":false,"id":35},{"disabled":false,"label":"Tumauini","id":36}],"id":2},{"id":3,"disabled":false,"municipalities":[{"label":"Alfonso Castaneda","disabled":false,"id":0},{"id":1,"label":"Ambaguio","disabled":false},{"disabled":false,"label":"Aritao","id":2},{"disabled":false,"id":3,"label":"Bagabag"},{"label":"Bambang","disabled":false,"id":4},{"id":5,"disabled":false,"label":"Bayombong"},{"label":"Diadi","disabled":false,"id":6},{"id":7,"disabled":false,"label":"Dupax Del Norte"},{"id":8,"disabled":false,"label":"Dupax Del Sur"},{"disabled":false,"id":9,"label":"Kasibu"},{"disabled":false,"id":10,"label":"Kayapa"},{"id":11,"disabled":false,"label":"Quezon"},{"label":"Santa Fe","disabled":false,"id":12},{"id":13,"disabled":false,"label":"Solano"},{"id":14,"label":"Villaverde","disabled":false}],"label":"Nueva Vizcaya"},{"id":4,"municipalities":[{"label":"Aglipay","disabled":false,"id":0},{"disabled":false,"id":1,"label":"Cabarroguis"},{"disabled":false,"id":2,"label":"Diffun"},{"id":3,"disabled":false,"label":"Maddela"},{"disabled":false,"id":4,"label":"Nagtipunan"},{"disabled":false,"id":5,"label":"Saguday"}],"disabled":false,"label":"Quirino"}],"media":{"description":"Agro-Climatic Advisory Portal-Bicol (ACAP-BICOL) serves as a centralized hub for the development of Climate Information Services (CIS) in the Bicol Region. It contains relevant weather and climate information which can be used in developing tailored advisories and crop recommendations.","url":"https://firebasestorage.googleapis.com/v0/b/amia-cis-dev.appspot.com/o/media%2Fimages%2Fopengraph%2F1200x600%2Fog_home_1200.png?alt=media&token=51f9241c-45da-456e-9906-677c2f8fe93a","path":"https://acap-cagayanvalley.github.io"}},"__N_SSG":true}